[
  {
    "name": "University of Toronto",
    "city": "Toronto",
    "province": "ON",
    "lat": 43.6629,
    "lng": -79.3957
  },
  {
    "name": "University of British Columbia",
    "city": "Vancouver",
    "province": "BC",
    "lat": 49.2606,
    "lng": -123.246
  },
  {
    "name": "McGill University",
    "city": "Montreal",
    "province": "QC",
    "lat": 45.5048,
    "lng": -73.5772
  },
  {
    "name": "University of Waterloo",
    "city": "Waterloo",
    "province": "ON",
    "lat": 43.4723,
    "lng": -80.5449
  },
  {
    "name": "University of Alberta",
    "city": "Edmonton",
    "province": "AB",
    "lat": 53.5232,
    "lng": -113.5263
  },
  {
    "name": "York University",
    "city": "Toronto",
    "province": "ON",
    "lat": 43.7735,
    "lng": -79.5019
  },
  {
    "name": "Western University",
    "city": "London",
    "province": "ON",
    "lat": 42.9993,
    "lng": -81.2721
  },
  {
    "name": "McMaster University",
    "city": "Hamilton",
    "province": "ON",
    "lat": 43.2609,
    "lng": -79.9192
  },
  {
    "name": "University of Calgary",
    "city": "Calgary",
    "province": "AB",
    "lat": 51.0776,
    "lng": -114.1278
  },
  {
    "name": "University of Ottawa",
    "city": "Ottawa",
    "province": "ON",
    "lat": 45.4231,
    "lng": -75.6831
  },
  {
    "name": "Concordia University",
    "city": "Montreal",
    "province": "QC",
    "lat": 45.4971,
    "lng": -73.5791
  },
  {
    "name": "Simon Fraser University",
    "city": "Burnaby",
    "province": "BC",
    "lat": 49.2781,
    "lng": -122.9199
  },
  {
    "name": "Queen's University",
    "city": "Kingston",
    "province": "ON",
    "lat": 44.2253,
    "lng": -76.4951
  },
  {
    "name": "Dalhousie University",
    "city": "Halifax",
    "province": "NS",
    "lat": 44.6366,
    "lng": -63.5917
  },
  {
    "name": "University of Manitoba",
    "city": "Winnipeg",
    "province": "MB",
    "lat": 49.8075,
    "lng": -97.1366
  },
  {
    "name": "University of Saskatchewan",
    "city": "Saskatoon",
    "province": "SK",
    "lat": 52.1332,
    "lng": -106.6314
  },
  {
    "name": "University of Victoria",
    "city": "Victoria",
    "province": "BC",
    "lat": 48.4634,
    "lng": -123.3117
  }
]
